id,lat,lng,label,population,risk
52,30.1219,31.4056,Cairo,48049701,0.00029704250799066496
69,23.8433,90.3978,Dhaka,57695473,0.0002675513612343164
73,25.2611,51.565,Doha,698380,0.00040053649150275386
105,24.9067,67.1608,Karachi,16780358,0.00010682806466027525
108,33.6167,73.0992,Islamabad,15343183,0.00031044757582299675
115,31.5217,74.4036,Lahore,16428675,0.00010473137419855173
146,44.5722,26.1022,Bucharest,5122809,0.00011222446155691511
151,31.7225,35.9933,Amman,7093425,0.0001470776304966336
173,5.2972,100.2767,Penang,2621408,0.0016391301939387738
177,1.4842,110.3439,Kuching,936145,0.0009321676525309807
182,2.7456,101.7147,Kuala Lumpur,8711663,0.011250871698710398
183,6.3386,99.7322,Langkawi,116526,0.00018443995552254767
186,5.9372,116.0531,Kota Kinabalu,1537665,0.002909174247113693
221,11.5467,104.8442,Phnom Penh,12169535,0.00443614872892209
222,13.4106,103.8128,Siem Reap,4814927,0.001563477507059052
223,10.5797,103.6369,Sihanoukville,1091383,0.0010434984395993657
228,8.9778,38.7994,Addis Ababa,20326311,0.0002673795062288271
256,24.9578,46.6989,Riyadh,1668604,0.00011775834493272791
276,47.4647,8.5492,Zurich,2620529,0.0012320974013320905
279,46.2381,6.1089,Geneva,1102297,0.00045993124445296954
296,-33.3931,-70.7858,Santiago (CL),10366280,0.00012054247397726926
311,41.1025,121.0619,Jinzhou,4242220,0.00012810431076217257
312,35.2931,116.3467,Jining,25722140,0.00027638495723199903
314,49.2086,119.8167,Hailar,851974,0.00020293207257990364
315,30.5786,103.9472,Chengdu,62854385,0.033765813934244764
316,34.2294,117.2458,Xuzhou,20796535,0.002716656877415867
322,39.1244,117.3461,Tianjin,14241195,0.013629136598091954
323,28.8003,104.545,Yibin,52581734,0.0010698617349262868
325,29.7194,106.6419,Chongqing,16205267,0.028180404236744012
327,36.6469,119.1186,Weifang,9193768,0.0002253082228890909
328,37.1872,122.2289,Weihai,2392348,0.00029738623037555063
329,46.75,125.1392,Daqing,6192883,0.0003002734711859949
330,27.8111,107.2461,Zunyi,7545282,0.0014384322982997663
331,23.72,106.9603,Baise,3943002,0.00027686616609605755
334,30.8039,108.4272,Wanzhou,6879185,0.0018398280895777813
336,46.8433,130.4653,Jiamusi,4290598,0.00011188073917202949
338,27.8833,109.3083,Tongren,3899266,0.00032814913634467846
341,27.8033,114.3078,Yichun (Jiangxi),6299510,0.0002854591576617109
343,36.5167,103.6167,Lanzhou,6850245,0.003650268150352071
344,27.7069,118.0031,Wuyishan,6414192,0.001542923068066289
346,31.4947,120.4294,Wuxi,7494542,0.011048214605275794
348,34.4478,108.7539,Xi'an,22353249,0.023545069982014676
349,39.4922,109.8631,Ordos,1651796,0.0002338324650282044
352,37.5078,118.7894,Dongying,10565224,0.00016354180033185248
353,32.1506,112.2908,Xiangyang,11750932,0.0023591197184546497
355,40.5606,109.9964,Baotou,3343659,0.0004354927783953287
358,45.6233,126.2503,Harbin,12100114,0.008855798913295694
360,30.3211,109.4853,Enshi,3774134,0.00032409324190040435
361,36.6367,109.5533,Yan'an,3357246,0.00035788088134610285
362,31.9194,119.7783,Changzhou,6991084,0.0035771246133715906
363,23.4275,116.7625,Shantou,16909762,0.000519017040578697
366,36.0789,106.2164,Guyuan,5702804,0.00010290965669517396
367,32.39,105.6931,Guangyuan,7423759,0.0009471881957740242
370,29.9347,122.3619,Zhoushan,1484739,0.0002737726893799005
372,29.2981,90.9122,Lhasa,1019683,0.00016134199810422604
373,18.3028,109.4122,Sanya,2888131,0.007718499379770229
375,26.6742,100.2436,Lijiang,1495973,0.0019276828283166414
376,25.935,119.6633,Fuzhou,10913454,0.0044680459076248255
377,27.7917,99.6781,Deqen,748566,0.00038053201080058926
378,37.4017,121.3717,Yantai,6160152,0.0018894268349891503
379,43.9072,87.4742,Urumqi,5237049,0.0022784487194025364
380,34.5719,118.8739,Lianyungang,7795627,0.00036248672789402194
381,34.7414,112.3894,Luoyang,11740472,0.000583395333953953
382,35.0494,118.4119,Linyi,12843250,0.0014701919967102814
387,38.27,109.7306,Yulin,3211960,0.0007236673218619945
389,24.7956,118.5881,Quanzhou,9437088,0.004159695022263553
391,36.2661,120.3744,Qingdao,8200069,0.00678072910062385
393,29.5147,108.8317,Qianjiang,3949506,0.00012628259325879479
394,38.9656,121.5386,Dalian,5749540,0.0055536500052771965
395,32.5631,119.7189,Yangzhou,8985870,0.0013763565342578658
396,29.3058,94.3386,Nyingchi,182206,0.00027607560956038337
398,28.8528,105.3933,Luzhou,9659760,0.0010622999043283367
399,21.9731,100.7631,Jinghong,1382281,0.00017471269122328788
400,27.9892,102.1844,Xichang,4562370,0.0004616498440034909
402,30.5569,111.4797,Yichang,11664371,0.003126336312587919
403,29.345,120.0325,Yiwu,6139309,0.0015462571492144755
404,29.1044,110.4431,Zhangjiajie,2982561,0.0007663229258316921
405,31.4289,104.7408,Mianyang,8917604,0.0008780318099982323
406,41.1056,122.8561,Anshan,8750351,0.00030481057449432747
407,29.8267,121.4619,Ningbo,6757958,0.007771672810761816
408,36.5258,114.425,Handan,26271177,0.0002377852415196221
411,39.9678,119.7292,Qinhuangdao,4523764,0.00023015466768208583
412,31.1433,121.8053,Shanghai,20308438,0.09005344450222601
413,41.6397,123.4833,Shenyang,13195977,0.0075256039253481545
414,24.4014,98.5322,Mangshi,1327739,0.00023304191467948354
417,26.54,101.7981,Panzhihua,4045241,0.0006075588270532483
418,30.7939,106.1597,Nanchong,12341109,0.003249491060604241
419,27.3258,103.7547,Zhaotong,7135359,0.0002695793084564534
420,40.08,116.5844,Beijing,28331507,0.06323520117537185
421,24.9378,98.4856,Tengchong,1002556,0.0009771949199207477
422,30.7403,117.6867,Chizhou,4495819,0.0007505805692925608
423,28.9672,118.9,Quzhou,3373956,0.0005399148049222649
427,26.8578,114.7364,Ji'an,5652245,0.00039953970524832016
429,40.8514,111.8242,Hohhot,4401373,0.002342105596515786
430,24.5442,118.1278,Xiamen,8240158,0.005389180161930498
432,32.9811,112.6156,Nanyang,12735325,0.0007050377183254657
434,28.5653,121.4303,Taizhou,5349916,0.0014040603382241069
435,29.3392,117.1764,Jingdezhen,4398562,0.00045291936595866477
436,44.5242,129.5689,Mudanjiang,3143833,0.00040926696954758006
437,25.0856,104.9594,Xingyi,7357766,0.00039699618063580817
438,31.9911,116.9892,Hefei,14358834,0.009885067360000737
439,36.5286,102.0403,Xining,3472426,0.0006242292266072263
440,38.2806,114.6972,Shijiazhuang,24520869,0.004326467791977689
442,33.4261,120.2031,Yancheng,6283873,0.0013058940083690712
443,29.7328,118.2572,Huangshan,1892668,0.0006918388802118932
445,31.7419,118.8619,Nanjing,13651608,0.022072334460691883
447,24.2642,116.0983,Meixian,6486268,0.0008079476491995989
449,33.7875,119.1278,Huai'an,10190694,0.0007584517475621265
450,25.8514,114.7753,Ganzhou,7056603,0.0006172173481129214
451,21.5394,109.2939,Beihai,5621760,0.00016636030408966382
452,27.3006,105.3017,Bijie,6594987,0.0005113173264674934
453,37.7469,112.6283,Taiyuan,11233266,0.007097535491071603
454,32.8808,115.7336,Fuyang,25324297,0.0006500769445437727
455,23.3925,113.2989,Guangzhou,39293380,0.00017058802465524486
456,28.1936,113.2178,Changsha,18325936,0.0028862137761745442
457,30.2294,120.4344,Hangzhou,12817942,0.031672630101613725
458,24.9922,102.7436,Kunming,11115277,0.014524148155315782
460,26.5386,106.8008,Guiyang,7252992,0.008728244554637167
461,25.2181,110.0392,Guilin,4941136,0.0004588313402456796
462,34.5597,105.86,Tianshui,8609117,0.00013332884646636962
463,27.4414,109.7003,Huaihua,5255897,0.0009931435123655915
465,27.9131,120.8522,Wenzhou,9918949,0.006943239746174952
467,25.6756,116.7456,Longyan,5754349,0.00012274228239184917
469,21.2153,110.3583,Zhanjiang,11700739,0.0024214364279922128
470,22.6083,108.1725,Nanning,8261012,0.003096570192873225
472,28.8639,115.9022,Nanchang,10823928,0.011085680042067612
474,39.5425,76.02,Kashi,3476362,0.00011528356355980225
475,19.9347,110.4589,Haikou,5945540,0.012984696654876848
476,36.8572,117.2161,Jinan,24300017,0.008176230821995572
477,30.7839,114.2081,Wuhan,30649978,0.014127736301496885
479,26.3417,111.6089,Yongzhou,18814432,0.00030597922194120403
480,35.1164,111.0336,Yuncheng,12627248,0.001237528172942
481,34.5194,113.8411,Zhengzhou,32471775,0.016577804235406553
482,28.9186,111.6408,Changde,10758043,0.0019361727019294387
483,43.9961,125.6853,Changchun,16217434,0.00657508164223899
484,42.16,118.8408,Chifeng,9056162,0.000298004925718782
486,39.7189,113.1461,Datong,7535077,0.00031017259667769754
487,31.1319,107.4306,Dazhou,9124364,0.0013628827231859475
488,47.2397,123.9181,Qiqihar,4106294,0.0001342912641944867
512,60.3172,24.9633,Helsinki,1565388,0.0006861331356436376
523,8.0958,98.9889,Krabi,613788,0.0009055981212983467
529,12.6797,101.005,U-Tapao,1370585,0.0004962624085111802
530,9.5503,100.0625,Ko Samui,127979,0.0008599865270916648
531,18.7714,98.9628,Chiang Mai,1497016,0.0036782813019899272
536,6.9328,100.395,Hat Yai,1959614,0.00016261375731700537
538,13.6858,100.7489,Bangkok,23541053,0.03268842473724685
545,19.9522,99.8831,Chiang Rai,1542645,0.0009195187665210534
549,8.1122,98.3053,Phuket,711102,0.0052787430431636894
566,27.6967,85.3592,Kathmandu,4670436,0.0009105133155178813
575,17.9883,102.5633,Vientiane,1706759,0.0003552686134940043
577,19.8978,102.1608,Luang Prabang,711323,0.0002033445382043757
592,17.6417,121.7336,Tuguegarao,1656916,0.00026627960202153713
596,14.5086,121.0194,Manila,26922690,0.016874778000157634
597,11.9244,121.9542,Caticlan,485256,0.00024503773063290973
601,10.7131,122.5453,Ilo-Ilo,1732160,0.0005916446093216742
602,11.6844,122.3811,Kalibo,1326601,0.00016708211738575157
606,9.6603,123.8542,Tagbilaran,1297124,0.00012109242608091423
607,11.2275,125.0278,Tacloban,2055059,0.00011342747753010801
608,9.7422,118.7586,Puerto Princesa,760747,0.00010809982387305456
612,18.1781,120.5314,Laoag,1898820,0.0002041350885530965
615,10.3075,123.9794,Cebu,4439843,0.0027456324467818407
616,15.1861,120.5603,Angeles,12020296,0.0022761801677483704
619,7.1253,125.6456,Davao,4597422,0.0005443487840907876
622,10.7767,123.0192,Bacolod,2756636,0.00015835163315397195
624,8.6125,124.4569,Cagayan de Oro,2074040,0.0001289636043504798
626,-26.1392,28.2461,Johannesburg,13748925,0.0006732092766753643
635,-33.9647,18.6017,Cape Town,3657016,0.0002663827199743935
668,43.3533,77.0422,Almaty,2169922,0.00013590674579215168
720,50.9014,4.4844,Brussels,6677903,0.0007287199963737488
730,52.4606,9.6894,Hannover,2991682,0.00010070985446754753
733,50.0331,8.5706,Frankfurt,6970523,0.0017570604000639446
735,53.6303,9.9883,Hamburg,3726203,0.0002786191341728954
742,52.5597,13.2878,Berlin,5387837,0.00034121048179212464
748,48.3539,11.7861,Munich,4802084,0.0007150055870567548
750,51.2894,6.7667,Duesseldorf,5382885,0.0003647209048349183
753,13.4833,144.7961,Guam,208888,0.000483063576584561
758,7.1803,79.8853,Colombo,9032691,0.0005990002102008648
762,55.95,-3.3725,Edinburgh,1697129,0.00022884853375603658
770,55.0375,-1.6917,Newcastle (UK),1756071,0.00016821639011935805
782,55.8719,-4.4333,Glasgow (UK),2064652,0.0001876365501915611
786,52.4536,-1.7478,Birmingham (UK),4036006,0.00030116714567452553
789,53.3536,-2.275,Manchester,5485344,0.001231375594222956
791,51.4775,-0.4614,London (UK),17233070,0.008306706796177815
814,33.3675,-7.59,Casablanca,8180563,0.0003416916906561831
827,15.1189,145.7294,Saipan,118045,0.0008042695714875676
830,47.4369,19.2556,Budapest,4865499,0.00018942389298166887
837,52.3081,4.7642,Amsterdam,9166721,0.0012603855321152455
856,47.8431,106.7667,Ulaanbaatar,1484007,0.00026273929115459144
875,16.9072,96.1333,Yangon,11684460,0.001204359228839533
884,21.7022,95.9781,Mandalay,7168138,0.0002708854423825027
915,37.9364,23.9444,Athens (GR),4646597,0.00018495553291292274
1024,19.4364,-99.0722,Mexico City,20670987,0.00018210266062879493
1053,12.9944,80.1806,Chennai,10117338,0.0005376118785548284
1083,10.1519,76.4019,Kochi (IN),11508804,0.00010081296623345046
1085,13.1989,77.7056,Bengaluru,20037284,0.0009183501190741773
1090,19.0886,72.8681,Mumbai,28236589,0.001725094478121624
1094,17.2311,78.4314,Hyderabad (IN),31863233,0.00021826196968151608
1095,22.6547,88.4467,Kolkata,72296808,0.00023132331512896225
1099,28.5664,77.1031,Delhi,62390146,0.0026024044748237684
1101,23.0772,72.6347,Ahmedabad,19456104,0.00014728386640234636
1123,20.8194,106.725,Haiphong,12031392,0.00038200999973212797
1124,10.2269,103.9672,Phuquoc,87833,0.00012679817064916986
1125,21.2211,105.8072,Hanoi,20834462,0.003826218232261821
1129,10.8189,106.6519,Ho Chi Minh City,16228217,0.004682492587294098
1137,11.9981,109.2192,Nha Trang,1733076,0.0008374041470637182
1139,16.0439,108.1994,Da Nang,1821939,0.0036121840182170213
1173,60.1939,11.1003,Oslo,1300337,0.00028594036652576936
1175,50.1008,14.26,Prague,3395494,0.0002524277000384167
1184,-17.755,177.4436,Nadi,336626,0.00035258760240231934
1196,-20.4303,57.6836,Mauritius,1261130,0.0002278861160279196
1205,32.0072,34.8806,Tel Aviv,4546752,0.0009555062143813319
1238,-8.7481,115.1672,Denpasar,5493498,0.0043904340167625535
1239,-0.1508,109.4039,Pontianak,3401864,0.00012679817064916986
1248,-6.9714,110.3742,Semarang,18252088,0.0002634267297374093
1254,-7.3797,112.7869,Surabaya,14697428,0.0013065814469518894
1290,3.5581,98.6717,Medan,10164885,0.0002977299465734828
1308,-7.7881,110.4317,Yogyakarta,21930984,0.00041796307906608976
1314,-6.1256,106.6558,Jakarta,36994844,0.006000107438658249
1350,63.985,-22.6056,Reykjavik,231760,0.00019262048146372892
1409,6.5775,3.3211,Lagos,13900362,0.0001614107413438125
1439,38.7742,-9.1342,Lisbon,3796257,0.000347088087552823
1449,-18.7969,47.4789,Antananarivo,8742775,0.00011542105622592857
1479,4.1917,73.5292,Male,172562,0.0008783755261961644
1513,45.7256,5.0811,Lyon,3616547,0.00012841365843378822
1534,43.6653,7.215,Nice,1115525,0.000115042959127773
1535,49.0097,2.5478,Paris,13528665,0.002603779351989404
1564,55.6203,12.6503,Copenhagen,2357021,0.0005072614382101726
1589,-12.4147,130.8767,Darwin,141577,0.00032172157848033505
1595,-34.945,138.5306,Adelaide,1303638,0.0006501800624966293
1603,-27.3842,153.1175,Brisbane,1972855,0.002108960563883446
1612,-33.9461,151.1772,Sydney (AU),4670715,0.006947398752385129
1615,-31.9403,115.9669,Perth,1700500,0.000950075442771422
1618,-42.8361,147.5103,Hobart,211377,0.00016972875376416666
1648,-37.6733,144.8433,Melbourne (AU),4144035,0.004141134161966611
1655,-35.3069,149.195,Canberra,460528,0.00010270342697641466
1684,-16.8781,145.7489,Cairns,216769,0.0005084988288966356
1699,48.1103,16.5781,Vienna,2819261,0.000678365069139975
1722,7.3672,134.5442,Koror,25584,0.0003344735762561654
1738,-1.3192,36.9278,Nairobi,8886171,0.00010648434227538957
1758,40.9769,28.8147,Istanbul,10841539,0.0005315967863149571
1789,4.9442,114.9283,Bandar Seri Begawan,391353,0.00035705595628411207
1855,59.8003,30.2625,St Petersburg,2791267,0.0001195113191965192
1859,43.3989,132.1481,Vladivostok,845793,0.0001615482278229854
1870,55.0125,82.6506,Novosibirsk,2154832,0.0001935141559522596
1890,55.4089,37.9064,Moscow,24597359,0.000885868613554528
1918,52.2681,104.3889,Irkutsk,1220082,0.0001887708229251676
2042,-23.4319,-46.4694,Sao Paulo,23797477,0.00020117910450306577
2051,44.8183,20.3092,Belgrade,4072719,0.00015790479900318336
2204,33.6367,-84.4281,Atlanta,4756209,0.00017522826861366293
2217,41.9786,-87.9047,Chicago,9723114,0.0007619920584290723
2272,32.7336,-117.1897,San Diego,3859323,0.00010180975867483747
2299,45.5886,-122.5975,Portland (US-OR),2775676,0.00021692146104219687
2305,25.7933,-80.2906,Miami,5181145,0.0002204961466224125
2334,29.9844,-95.3414,Houston,5803516,0.00021991181980549762
2335,39.1753,-76.6683,Baltimore,8035632,0.00039627436733972034
2366,39.8617,-104.6731,Denver,3201129,0.00012655757240409405
2375,37.6189,-122.3917,San Francisco,7595097,0.003652021124615861
2393,33.9425,-118.4081,Los Angeles,19797290,0.003385569661401881
2396,36.08,-115.1522,Las Vegas,1646212,0.0003603900374322984
2429,47.4489,-122.3094,Seattle,4500055,0.0006847926270043184
2441,33.4342,-112.0117,Phoenix,3973284,0.00010215347487276968
2489,42.3644,-71.0053,Boston,5294555,0.0006229230926811771
2511,21.3278,-157.9222,Honolulu,1093438,0.00045670028125763967
2518,40.6397,-73.7789,New York,16714154,0.0031828438185407372
2532,28.4294,-81.3089,Orlando,3230600,0.0001354255369280931
2533,32.8969,-97.0381,Dallas,6658743,0.00023005154972922945
2571,59.6519,17.9186,Stockholm,2241423,0.0007381035444750763
2572,57.6628,12.2797,Goteborg,1014515,0.00014044384291353088
2642,53.3075,-113.5861,Edmonton,1387873,0.0001944421989671067
2682,43.6772,-79.6306,Toronto,7618258,0.002302474719835705
2716,51.1139,-114.0203,Calgary,1610469,0.00035901516026666264
2766,49.1939,-123.1844,Vancouver,2794226,0.0027918971110450237
2777,45.4706,-73.7408,Montreal,5049937,0.0002721915763085521
2796,50.345,30.8947,Kiev,6928075,0.00016519165664278742
2801,33.5114,126.4931,Jeju,527344,0.0009373234449955916
2803,37.4692,126.4506,Seoul,27019922,0.032478583904125495
2804,35.8942,128.6589,Daegu,4110186,0.001255298476703268
2806,35.1403,129.0628,Pusan,4350635,0.0021686646645052775
2809,35.5936,129.3517,Ulsan,1877600,0.00015326458392894772
2821,1.3592,103.9894,Singapore,4091180,0.02141287396804678
2822,24.265,120.6208,Taichung Cingcyuangang,5824361,0.006368368654360111
2825,25.0778,121.2328,Taipei,10434115,0.05655116040948454
2828,22.5772,120.35,Kaohsiung,5680715,0.010451242342297069
2852,52.1658,20.9672,Warsaw,6532383,0.0002398131887417592
2874,40.4936,-3.5667,Madrid,6752288,0.0007477276970084332
2884,41.2969,2.0783,Barcelona (ES),4148999,0.0006156018665152566
2925,53.4214,-6.27,Dublin,2249671,0.00046182169900898026
2966,35.6889,51.3147,Tehran,18888667,0.00010871851921628596
2979,-9.4433,147.22,Port Moresby,443614,0.00020595680605647423
3037,-45.0183,168.7467,Queenstown,36427,0.00012865425667886408
3041,-43.4894,172.5322,Christchurch,450914,0.0005610191898317193
3046,-37.0097,174.7917,Auckland,1473397,0.0022553507557972613
3057,-41.3269,174.8069,Wellington,399837,0.00013188522606114746
3085,45.5053,12.3519,Venice,3258564,0.00021262496835284693
3093,45.63,8.7231,Milan,8907478,0.0010638122679731458
3099,41.8003,12.2389,Rome,4729924,0.0006411402367801874
3102,24.3964,124.245,New Ishigaki,49278,0.00026511095457466073
3106,35.5522,139.7797,Tokyo,32212732,0.008519228646577805
3110,34.7569,133.8553,Okayama,2017693,0.0003411073638392682
3115,31.8033,130.7194,Kagoshima,1760168,0.0014117940300144992
3122,38.1397,140.9169,Sendai,2131405,0.00010861540745038299
3126,34.1328,134.6067,Tokushima,732939,0.00016106701895892683
3127,35.7647,140.3864,Tokyo Narita,8512151,0.018553607814016077
3129,32.9169,129.9136,Nagasaki,2172181,0.00017553761628527864
3135,26.1958,127.6458,Okinawa,1306046,0.003193017923177739
3141,34.8583,136.8053,Nagoya,11834566,0.003734307605265639
3144,34.4361,132.9194,Hiroshima,1535236,0.00039091233896939697
3145,34.2142,134.0156,Takamatsu,1179894,0.0005845296128745129
3147,33.5858,130.4506,Fukuoka,3931988,0.003713271963595772
3150,35.4136,132.89,Izumo,841792,0.00033478292392778123
3151,34.4272,135.2442,Osaka,19601735,0.019220183303108332
3153,32.8372,130.855,Kumamoto,1733825,0.00024978105747304827
3158,42.7753,141.6922,Sapporo,3205804,0.005566676976011375
3179,24.4331,54.6511,Abu Dhabi,468202,0.0003965837150113361
3181,25.2528,55.3644,Dubai,1501658,0.003438983690638542
3205,-34.8222,-58.5358,Buenos Aires,15821757,0.00012016438306606712
3232,26.2708,50.6336,Bahrain,793049,0.000101294175097509
