id,lat,lng,label,population,risk
69,23.8433,90.3978,Dhaka,57695473,0.0004899493630764434
105,24.9067,67.1608,Karachi,16780358,0.00010279330735033941
173,5.2972,100.2767,Penang,2621408,0.00039356064497968885
182,2.7456,101.7147,Kuala Lumpur,8711663,0.0017900764279070761
186,5.9372,116.0531,Kota Kinabalu,1537665,0.00035097026910507805
221,11.5467,104.8442,Phnom Penh,12169535,0.0005922623183071127
222,13.4106,103.8128,Siem Reap,4814927,0.0022097356667385697
276,47.4647,8.5492,Zurich,2620529,0.00024001114864364824
310,41.6992,86.1303,Korla,1069639,0.000855329907566123
311,41.1025,121.0619,Jinzhou,4242220,0.000791444343754207
315,30.5786,103.9472,Chengdu,62854385,0.047783032147799394
322,39.1244,117.3461,Tianjin,14241195,0.0014951461346424198
323,28.8003,104.545,Yibin,52581734,0.0014876207718105227
325,29.7194,106.6419,Chongqing,16205267,0.04650884357866104
328,37.1872,122.2289,Weihai,2392348,0.004545961531722035
329,46.75,125.1392,Daqing,6192883,0.0008306723124322273
330,27.8111,107.2461,Zunyi,7545282,0.008006509130664547
334,30.8039,108.4272,Wanzhou,6879185,0.0008281104824949035
336,46.8433,130.4653,Jiamusi,4290598,0.0015825684623688176
337,26.2572,105.8728,Anshun,4959935,0.001823059963132136
338,27.8833,109.3083,Tongren,3899266,0.002857077256646764
339,42.065,127.6025,Baishan,3207170,0.001370417189075582
341,27.8033,114.3078,Yichun (Jiangxi),6299510,0.0013851476895997796
343,36.5167,103.6167,Lanzhou,6850245,0.014282504285798
348,34.4478,108.7539,Xi'an,22353249,0.03755686028460714
349,39.4922,109.8631,Ordos,1651796,0.0024443029303679747
353,32.1506,112.2908,Xiangyang,11750932,0.001412687339810596
354,25.0536,99.1681,Baoshan,2095138,0.00179455963750253
355,40.5606,109.9964,Baotou,3343659,0.004681898472456957
358,45.6233,126.2503,Harbin,12100114,0.02749464530683917
360,30.3211,109.4853,Enshi,3774134,0.0026865556838093487
361,36.6367,109.5533,Yan'an,3357246,0.0010482674707397066
363,23.4275,116.7625,Shantou,16909762,0.004951850974268671
371,22.7947,100.9592,Simao,2213550,0.00029845282744132026
372,29.2981,90.9122,Lhasa,1019683,0.0004098922712018697
373,18.3028,109.4122,Sanya,2888131,0.028295856618223005
375,26.6742,100.2436,Lijiang,1495973,0.011268034773498936
376,25.935,119.6633,Fuzhou,10913454,0.013061953960722272
378,37.4017,121.3717,Yantai,6160152,0.008633996560173897
379,43.9072,87.4742,Urumqi,5237049,0.010969261749738569
380,34.5719,118.8739,Lianyungang,7795627,0.0013222228300272046
383,43.9553,81.3289,Yining,1687819,0.001320301450369074
387,38.27,109.7306,Yulin,3211960,0.003370723539438313
388,25.6503,100.3194,Dali,3767440,0.0012756295966768099
389,24.7956,118.5881,Quanzhou,9437088,0.006655946073167259
391,36.2661,120.3744,Qingdao,8200069,0.0106221342111292
394,38.9656,121.5386,Dalian,5749540,0.02609764917179212
397,24.2078,109.3914,Liuzhou,8005244,0.0013259054623633913
398,28.8528,105.3933,Luzhou,9659760,0.0013222228300272046
399,21.9731,100.7631,Jinghong,1382281,0.0006897718388027312
400,27.9892,102.1844,Xichang,4562370,0.0005474303376347751
402,30.5569,111.4797,Yichang,11664371,0.00010503488332751569
404,29.1044,110.4431,Zhangjiajie,2982561,0.0029355332228233554
405,31.4289,104.7408,Mianyang,8917604,0.0053257175570090385
406,41.1056,122.8561,Anshan,8750351,0.0021160688767386613
411,39.9678,119.7292,Qinhuangdao,4523764,0.0010000731116913293
412,31.1433,121.8053,Shanghai,20308438,0.0010889364669561868
413,41.6397,123.4833,Shenyang,13195977,0.01930256387767342
414,24.4014,98.5322,Mangshi,1327739,0.00039564212279734215
416,23.7389,100.025,Lincang,2848292,0.00020638716313939497
417,26.54,101.7981,Panzhihua,4045241,0.0026849545292908154
420,40.08,116.5844,Beijing,28331507,0.03398983677479864
421,24.9378,98.4856,Tengchong,1002556,0.002027205521473804
425,39.8572,98.3414,Jiayuguan,1106084,0.0009320245922441065
427,26.8578,114.7364,Ji'an,5652245,0.0006125968308256282
429,40.8514,111.8242,Hohhot,4401373,0.008902828259586746
430,24.5442,118.1278,Xiamen,8240158,0.028232291308371238
436,44.5242,129.5689,Mudanjiang,3143833,0.0007224351488881945
439,36.5286,102.0403,Xining,3472426,0.0023327033596273515
440,38.2806,114.6972,Shijiazhuang,24520869,0.009315762684025059
441,42.8828,129.4514,Yanji,1789684,0.0008258689065177272
442,33.4261,120.2031,Yancheng,6283873,0.0033732853405550865
450,25.8514,114.7753,Ganzhou,7056603,0.00014730503406252968
451,21.5394,109.2939,Beihai,5621760,0.0007773542935092024
452,27.3006,105.3017,Bijie,6594987,0.0010724447137539321
453,37.7469,112.6283,Taiyuan,11233266,0.02395003781618741
455,23.3925,113.2989,Guangzhou,39293380,0.07236279899829387
456,28.1936,113.2178,Changsha,18325936,0.024401399660865027
458,24.9922,102.7436,Kunming,11115277,0.03900381203138062
460,26.5386,106.8008,Guiyang,7252992,0.035041626779715014
461,25.2181,110.0392,Guilin,4941136,0.01158538105709976
467,25.6756,116.7456,Longyan,5754349,0.000716671038734354
469,21.2153,110.3583,Zhanjiang,11700739,0.004755390876918422
470,22.6083,108.1725,Nanning,8261012,0.025394747958163173
472,28.8639,115.9022,Nanchang,10823928,0.006295368963412631
473,22.3089,113.9147,Hong Kong,36745880,0.1028190761218082
475,19.9347,110.4589,Haikou,5945540,0.025263134128864183
476,36.8572,117.2161,Jinan,24300017,0.0004039680628885062
477,30.7839,114.2081,Wuhan,30649978,0.0005693660046718242
480,35.1164,111.0336,Yuncheng,12627248,0.007790835323194645
481,34.5194,113.8411,Zhengzhou,32471775,0.002198527671570485
483,43.9961,125.6853,Changchun,16217434,0.02225763100693547
486,39.7189,113.1461,Datong,7535077,0.002122473437171695
512,60.3172,24.9633,Helsinki,1565388,0.0004388729489511459
531,18.7714,98.9628,Chiang Mai,1497016,0.0008340347196288176
538,13.6858,100.7489,Bangkok,23541053,0.01817391908991954
549,8.1122,98.3053,Phuket,711102,0.00781052938543397
566,27.6967,85.3592,Kathmandu,4670436,0.0003269531242503754
575,17.9883,102.5633,Vientiane,1706759,0.00027763796280313443
596,14.5086,121.0194,Manila,26922690,0.0005797734225806418
615,10.3075,123.9794,Cebu,4439843,0.00028980666221055943
626,-26.1392,28.2461,Johannesburg,13748925,0.0001764458099713289
720,50.9014,4.4844,Brussels,6677903,0.00011944515871211697
733,50.0331,8.5706,Frankfurt,6970523,0.0008513270500903392
735,53.6303,9.9883,Hamburg,3726203,0.0001221671156295143
742,52.5597,13.2878,Berlin,5387837,0.00018477175006249304
748,48.3539,11.7861,Munich,4802084,0.0002713935293501744
750,51.2894,6.7667,Duesseldorf,5382885,0.00022287891634164962
758,7.1803,79.8853,Colombo,9032691,0.00024801686359521573
789,53.3536,-2.275,Manchester,5485344,0.00020526636074053145
791,51.4775,-0.4614,London (UK),17233070,0.0010220087499078275
830,47.4369,19.2556,Budapest,4865499,0.00010055170255261237
837,52.3081,4.7642,Amsterdam,9166721,0.0001762857118118059
875,16.9072,96.1333,Yangon,11684460,0.0007040220160278095
884,21.7022,95.9781,Mandalay,7168138,0.0007165109117542803
1090,19.0886,72.8681,Mumbai,28236589,0.00020590681101972463
1099,28.5664,77.1031,Delhi,62390146,0.0002484971868943353
1125,21.2211,105.8072,Hanoi,20834462,0.0004251031238457379
1129,10.8189,106.6519,Ho Chi Minh City,16228217,0.0007136288566773601
1137,11.9981,109.2192,Nha Trang,1733076,0.0019484293589781675
1139,16.0439,108.1994,Da Nang,1821939,0.00020270453080320781
1205,32.0072,34.8806,Tel Aviv,4546752,0.00012873180304262172
1238,-8.7481,115.1672,Denpasar,5493498,0.002440780425011861
1254,-7.3797,112.7869,Surabaya,14697428,0.00017468455729327214
1314,-6.1256,106.6558,Jakarta,36994844,0.0009398701802156002
1479,4.1917,73.5292,Male,172562,0.00048018239544681934
1535,49.0097,2.5478,Paris,13528665,0.0005426269317202751
1564,55.6203,12.6503,Copenhagen,2357021,0.00014522355624487637
1595,-34.945,138.5306,Adelaide,1303638,0.0002696322766721177
1603,-27.3842,153.1175,Brisbane,1972855,0.000535902117327094
1612,-33.9461,151.1772,Sydney (AU),4670715,0.0022878713789550127
1615,-31.9403,115.9669,Perth,1700500,0.00035065004396548147
1648,-37.6733,144.8433,Melbourne (AU),4144035,0.0019426652488243265
1699,48.1103,16.5781,Vienna,2819261,0.0001132007252591569
1890,55.4089,37.9064,Moscow,24597359,0.00025602254972623253
2335,39.1753,-76.6683,Baltimore,8035632,0.00010535513728766303
2375,37.6189,-122.3917,San Francisco,7595097,0.00041949914067197097
2393,33.9425,-118.4081,Los Angeles,19797290,0.0017220279084598532
2518,40.6397,-73.7789,New York,16714154,0.0006198019685179287
2571,59.6519,17.9186,Stockholm,2241423,0.00020222420750408827
2682,43.6772,-79.6306,Toronto,7618258,0.000326472800951256
2766,49.1939,-123.1844,Vancouver,2794226,0.0009504377251044916
2801,33.5114,126.4931,Jeju,527344,0.0014531962090470025
2803,37.4692,126.4506,Seoul,27019922,0.007879218355160384
2806,35.1403,129.0628,Pusan,4350635,0.001589773600061118
2809,35.5936,129.3517,Ulsan,1877600,0.00010999844504264004
2821,1.3592,103.9894,Singapore,4091180,0.007849597227131916
2822,24.265,120.6208,Taichung Cingcyuangang,5824361,0.0005011573582445278
2825,25.0778,121.2328,Taipei,10434115,0.01110503856349342
2828,22.5772,120.35,Kaohsiung,5680715,0.0020818044409552146
2874,40.4936,-3.5667,Madrid,6752288,0.00025298039648978933
2884,41.2969,2.0783,Barcelona (ES),4148999,0.00016603839206251136
3041,-43.4894,172.5322,Christchurch,450914,0.00012392836830757106
3046,-37.0097,174.7917,Auckland,1473397,0.0006806453502728509
3085,45.5053,12.3519,Venice,3258564,0.00010295340550986232
3093,45.63,8.7231,Milan,8907478,0.0016394089866479556
3099,41.8003,12.2389,Rome,4729924,0.00022383962058099014
3106,35.5522,139.7797,Tokyo,32212732,0.0002755564849854811
3127,35.7647,140.3864,Tokyo Narita,8512151,0.002018719454402566
3135,26.1958,127.6458,Okinawa,1306046,0.0008817487265575248
3147,33.5858,130.4506,Fukuoka,3931988,0.00010887764264377653
3151,34.4272,135.2442,Osaka,19601735,0.010061894723807807
3158,42.7753,141.6922,Sapporo,3205804,0.0024270105999064525
3181,25.2528,55.3644,Dubai,1501658,0.000590661163788579
