id,lat,lng,label,population,risk
69,23.8433,90.3978,Dhaka,57695473,0.0001580517807097319
182,2.7456,101.7147,Kuala Lumpur,8711663,0.0004974688516229119
186,5.9372,116.0531,Kota Kinabalu,1537665,0.0005536955110586898
221,11.5467,104.8442,Phnom Penh,12169535,0.0009891093567284922
222,13.4106,103.8128,Siem Reap,4814927,0.0001450236575719951
223,10.5797,103.6369,Sihanoukville,1091383,0.002895330489118009
312,35.2931,116.3467,Jining,25722140,0.0014080665965711663
315,30.5786,103.9472,Chengdu,62854385,0.04525080964515185
322,39.1244,117.3461,Tianjin,14241195,0.014784527611527657
323,28.8003,104.545,Yibin,52581734,0.00012548144200929252
325,29.7194,106.6419,Chongqing,16205267,0.0637264121846219
329,46.75,125.1392,Daqing,6192883,0.00034215980769493733
330,27.8111,107.2461,Zunyi,7545282,0.005043600549273206
338,27.8833,109.3083,Tongren,3899266,0.0007604313633421722
343,36.5167,103.6167,Lanzhou,6850245,0.016044484940791248
348,34.4478,108.7539,Xi'an,22353249,0.04298391498494177
349,39.4922,109.8631,Ordos,1651796,0.0020608444304098575
353,32.1506,112.2908,Xiangyang,11750932,0.0017399410179101242
355,40.5606,109.9964,Baotou,3343659,0.00012376726237679154
358,45.6233,126.2503,Harbin,12100114,0.024464428224978248
363,23.4275,116.7625,Shantou,16909762,0.004750124751439825
367,32.39,105.6931,Guangyuan,7423759,0.002805847806786353
371,22.7947,100.9592,Simao,2213550,0.00018685082547915748
372,29.2981,90.9122,Lhasa,1019683,0.00014296660498567707
373,18.3028,109.4122,Sanya,2888131,0.00912037669416238
375,26.6742,100.2436,Lijiang,1495973,0.00543547298569115
378,37.4017,121.3717,Yantai,6160152,0.012936590252872427
379,43.9072,87.4742,Urumqi,5237049,0.006351899077156736
380,34.5719,118.8739,Lianyungang,7795627,0.0017563976237372524
381,34.7414,112.3894,Luoyang,11740472,0.00010833921369891976
382,35.0494,118.4119,Linyi,12843250,0.0026553386139386483
388,25.6503,100.3194,Dali,3767440,0.0003702731682689237
389,24.7956,118.5881,Quanzhou,9437088,0.00048684065402531014
391,36.2661,120.3744,Qingdao,8200069,0.019678990336344036
394,38.9656,121.5386,Dalian,5749540,0.01187925460900748
397,24.2078,109.3914,Liuzhou,8005244,0.0049373184498727974
398,28.8528,105.3933,Luzhou,9659760,0.005068628238399423
399,21.9731,100.7631,Jinghong,1382281,0.0006109507276437241
400,27.9892,102.1844,Xichang,4562370,0.002633396472835811
402,30.5569,111.4797,Yichang,11664371,0.0022116964962113797
404,29.1044,110.4431,Zhangjiajie,2982561,0.006478409076315285
405,31.4289,104.7408,Mianyang,8917604,0.002287808182451482
408,36.5258,114.425,Handan,26271177,0.0040424916265562345
412,31.1433,121.8053,Shanghai,20308438,0.015472275771319115
413,41.6397,123.4833,Shenyang,13195977,0.017395639132019004
414,24.4014,98.5322,Mangshi,1327739,0.00048684065402531014
418,30.7939,106.1597,Nanchong,12341109,0.0036612473877358906
420,40.08,116.5844,Beijing,28331507,0.04501698898944365
428,40.0256,124.2869,Dandong,3017061,0.00019370772914574557
429,40.8514,111.8242,Hohhot,4401373,0.000821800746812037
430,24.5442,118.1278,Xiamen,8240158,0.0008855699941098422
438,31.9911,116.9892,Hefei,14358834,0.010582955708824627
439,36.5286,102.0403,Xining,3472426,0.0004244427751183835
440,38.2806,114.6972,Shijiazhuang,24520869,0.00890164121417822
441,42.8828,129.4514,Yanji,1789684,0.00013679538551452836
442,33.4261,120.2031,Yancheng,6283873,0.002939557520853112
443,29.7328,118.2572,Huangshan,1892668,0.0017958248661042798
445,31.7419,118.8619,Nanjing,13651608,0.00017725112331861738
449,33.7875,119.1278,Huai'an,10190694,0.004947603774516585
451,21.5394,109.2939,Beihai,5621760,0.0007120901647222386
453,37.7469,112.6283,Taiyuan,11233266,0.013607538933882944
454,32.8808,115.7336,Fuyang,25324297,0.0011485325058291026
455,23.3925,113.2989,Guangzhou,39293380,0.07583091630432631
456,28.1936,113.2178,Changsha,18325936,0.01735346915287022
458,24.9922,102.7436,Kunming,11115277,0.04601501230242504
460,26.5386,106.8008,Guiyang,7252992,0.07590531381093389
461,25.2181,110.0392,Guilin,4941136,0.009210545060689477
469,21.2153,110.3583,Zhanjiang,11700739,0.0031137230961483502
470,22.6083,108.1725,Nanning,8261012,0.021059972129490474
472,28.8639,115.9022,Nanchang,10823928,0.0003027326270401047
473,22.3089,113.9147,Hong Kong,36745880,0.06925582483077115
475,19.9347,110.4589,Haikou,5945540,0.018844161528106453
476,36.8572,117.2161,Jinan,24300017,0.012680141771865938
477,30.7839,114.2081,Wuhan,30649978,0.0324993559764139
479,26.3417,111.6089,Yongzhou,18814432,0.0007480889243998746
480,35.1164,111.0336,Yuncheng,12627248,0.0043915083379177594
481,34.5194,113.8411,Zhengzhou,32471775,0.034974357795586164
482,28.9186,111.6408,Changde,10758043,0.0009167689644194029
483,43.9961,125.6853,Changchun,16217434,0.009285971062734138
488,47.2397,123.9181,Qiqihar,4106294,0.0009987089971768377
531,18.7714,98.9628,Chiang Mai,1497016,0.00041450026171622117
538,13.6858,100.7489,Bangkok,23541053,0.004389451285331441
549,8.1122,98.3053,Phuket,711102,0.0003932438048088228
566,27.6967,85.3592,Kathmandu,4670436,0.0002269637520416242
575,17.9883,102.5633,Vientiane,1706759,0.0006047795081725754
596,14.5086,121.0194,Manila,26922690,0.00020227887415702933
626,-26.1392,28.2461,Johannesburg,13748925,0.00014845214026138644
720,50.9014,4.4844,Brussels,6677903,0.0011728745724720751
733,50.0331,8.5706,Frankfurt,6970523,0.0005677521913456829
748,48.3539,11.7861,Munich,4802084,0.0001635373159854413
750,51.2894,6.7667,Duesseldorf,5382885,0.00033084592590189625
758,7.1803,79.8853,Colombo,9032691,0.00010216799422777102
791,51.4775,-0.4614,London (UK),17233070,0.0004895833908070675
830,47.4369,19.2556,Budapest,4865499,0.000590722827885582
837,52.3081,4.7642,Amsterdam,9166721,0.0009270542890631877
875,16.9072,96.1333,Yangon,11684460,0.0003558736767403081
884,21.7022,95.9781,Mandalay,7168138,0.00014982350865226516
915,37.9364,23.9444,Athens (GR),4646597,0.0003044468066726056
1090,19.0886,72.8681,Mumbai,28236589,0.0001364525125607113
1095,22.6547,88.4467,Kolkata,72296808,0.00012445294657223088
1099,28.5664,77.1031,Delhi,62390146,0.0003082181006036193
1124,10.2269,103.9672,Phuquoc,87833,0.0009013409157415313
1125,21.2211,105.8072,Hanoi,20834462,0.0003047896796264226
1129,10.8189,106.6519,Ho Chi Minh City,16228217,0.0008379144796853482
1137,11.9981,109.2192,Nha Trang,1733076,0.0016785716961524536
1139,16.0439,108.1994,Da Nang,1821939,0.0001398809952501027
1175,50.1008,14.26,Prague,3395494,0.0004837550442897357
1205,32.0072,34.8806,Tel Aviv,4546752,0.00015153774999696084
1238,-8.7481,115.1672,Denpasar,5493498,0.0019158207728378629
1291,0.9239,104.5331,Tanjung Pinang,542693,0.00039941502427997156
1314,-6.1256,106.6558,Jakarta,36994844,0.0005578096779435205
1439,38.7742,-9.1342,Lisbon,3796257,0.00022250677391517118
1440,41.2356,-8.6781,Porto,3635687,0.00016388018893925826
1479,4.1917,73.5292,Male,172562,0.00016593724152557632
1535,49.0097,2.5478,Paris,13528665,0.0091224337467487
1603,-27.3842,153.1175,Brisbane,1972855,0.0001073106565496634
1612,-33.9461,151.1772,Sydney (AU),4670715,0.0010720779466351828
1648,-37.6733,144.8433,Melbourne (AU),4144035,0.0007234040465152798
1699,48.1103,16.5781,Vienna,2819261,0.0004594129776467631
1890,55.4089,37.9064,Moscow,24597359,0.0014392655051685321
2042,-23.4319,-46.4694,Sao Paulo,23797477,0.000758374310755854
2217,41.9786,-87.9047,Chicago,9723114,0.00010765346779128572
2375,37.6189,-122.3917,San Francisco,7595097,0.00018685082547915748
2393,33.9425,-118.4081,Los Angeles,19797290,0.0006863767296883874
2518,40.6397,-73.7789,New York,16714154,0.002312493060336077
2571,59.6519,17.9186,Stockholm,2241423,0.0002722193409259833
2682,43.6772,-79.6306,Toronto,7618258,0.00018307953154814383
2766,49.1939,-123.1844,Vancouver,2794226,0.00029176155648868583
2801,33.5114,126.4931,Jeju,527344,0.002947442981668957
2803,37.4692,126.4506,Seoul,27019922,0.005559240186355747
2821,1.3592,103.9894,Singapore,4091180,0.0016124025233145134
2825,25.0778,121.2328,Taipei,10434115,0.009646644590554716
2828,22.5772,120.35,Kaohsiung,5680715,0.0004021578227739237
2852,52.1658,20.9672,Warsaw,6532383,0.00037301590505068097
2873,36.675,-4.4992,Malaga,1326212,0.0002879902625576722
2874,40.4936,-3.5667,Madrid,6752288,0.003121265684010377
2883,39.4894,-0.4817,Valencia (ES),2682797,0.0006027224555862572
2884,41.2969,2.0783,Barcelona (ES),4148999,0.0020255313549276607
2904,38.2822,-0.5581,Alicante,1824310,0.00021050714621449605
2907,43.3011,-2.9106,Bilbao,1559995,0.00011999590673358316
2911,39.5517,2.7389,Palma de Mallorca,762719,0.00016456587313469763
3046,-37.0097,174.7917,Auckland,1473397,0.0002523343141216585
3065,37.4667,15.0639,Catania,1430309,0.0005533526998170674
3072,38.9083,16.2417,Lamezia Terme,1123206,0.00025301999831709777
3073,41.1381,16.765,Bari,1994100,0.00027839056039713196
3081,43.8086,11.2028,Florence (IT),1721779,0.003731873538700284
3082,45.2025,7.6494,Turin,2132690,0.00011553892860713013
3085,45.5053,12.3519,Venice,3258564,0.001070020894048865
3086,44.5308,11.2969,Bologna,1749603,0.0008300290188695038
3088,39.2514,9.0578,Cagliari,903428,0.00020262168539865162
3090,38.1819,13.0994,Palermo,1381772,0.0003143893200747681
3093,45.63,8.7231,Milan,8907478,0.01010605756820148
3096,40.6606,17.9481,Brindisi,1508789,0.00017416551358304303
3099,41.8003,12.2389,Rome,4729924,0.013916785591635821
3106,35.5522,139.7797,Tokyo,32212732,0.0007042047039063943
3127,35.7647,140.3864,Tokyo Narita,8512151,0.0008365431112944695
3141,34.8583,136.8053,Nagoya,11834566,0.00020365024254790802
3147,33.5858,130.4506,Fukuoka,3931988,0.00015325192962946182
3151,34.4272,135.2442,Osaka,19601735,0.00152257696802904
3181,25.2528,55.3644,Dubai,1501658,0.0018201668710350575
