id,lat,lng,label,population,risk
173,5.2972,100.2767,Penang,2621408,0.0003108473306328577
182,2.7456,101.7147,Kuala Lumpur,8711663,0.0016291806851844485
186,5.9372,116.0531,Kota Kinabalu,1537665,0.00018736004172675497
221,11.5467,104.8442,Phnom Penh,12169535,0.000668108848107702
311,41.1025,121.0619,Jinzhou,4242220,0.00027763349303433553
312,35.2931,116.3467,Jining,25722140,0.001722221985034639
313,46.1947,122.0083,Ulanhot,3271330,0.0005275897411514543
314,49.2086,119.8167,Hailar,851974,0.0031987468342834463
315,30.5786,103.9472,Chengdu,62854385,0.0282960496416584
316,34.2294,117.2458,Xuzhou,20796535,0.008988597780522026
322,39.1244,117.3461,Tianjin,14241195,0.031031506197215918
325,29.7194,106.6419,Chongqing,16205267,0.0152153383069996
328,37.1872,122.2289,Weihai,2392348,0.004967595894002645
329,46.75,125.1392,Daqing,6192883,0.0021974673527137213
330,27.8111,107.2461,Zunyi,7545282,0.0009238127472328844
335,52.9164,122.4222,Mohe,253739,0.002937507314720332
336,46.8433,130.4653,Jiamusi,4290598,0.0035070402326778413
339,42.065,127.6025,Baishan,3207170,0.0030390649713936376
343,36.5167,103.6167,Lanzhou,6850245,0.0022570497070631052
344,27.7069,118.0031,Wuyishan,6414192,0.0027731414594101738
346,31.4947,120.4294,Wuxi,7494542,0.0055388311161810345
348,34.4478,108.7539,Xi'an,22353249,0.028608174452641282
349,39.4922,109.8631,Ordos,1651796,0.00143883990707251
353,32.1506,112.2908,Xiangyang,11750932,0.002170182806149499
355,40.5606,109.9964,Baotou,3343659,0.0013462244595547547
356,43.4233,112.0911,Erenhot,360972,0.00011518385824920525
357,45.2925,131.1919,Jixi,2822034,0.006968941740264211
362,31.9194,119.7783,Changzhou,6991084,0.005937822828077515
363,23.4275,116.7625,Shantou,16909762,0.003926896070809034
366,36.0789,106.2164,Guyuan,5702804,0.0005529250281821408
367,32.39,105.6931,Guangyuan,7423759,0.0008005383461693553
368,43.5575,122.2,Tongliao,4930093,0.0018120696223334282
372,29.2981,90.9122,Lhasa,1019683,0.0007756279775513747
373,18.3028,109.4122,Sanya,2888131,0.03946888224391461
374,47.7514,129.0178,Yichun (Heilongjiang),2862117,0.0013696453123696966
375,26.6742,100.2436,Lijiang,1495973,0.0013711348281727352
376,25.935,119.6633,Fuzhou,10913454,0.01014512020213985
378,37.4017,121.3717,Yantai,6160152,0.016245179777159925
379,43.9072,87.4742,Urumqi,5237049,0.0007411366979264782
380,34.5719,118.8739,Lianyungang,7795627,0.00248912067959668
382,35.0494,118.4119,Linyi,12843250,0.0046646262183415365
387,38.27,109.7306,Yulin,3211960,0.0020899160415339814
389,24.7956,118.5881,Quanzhou,9437088,0.003304988483377101
391,36.2661,120.3744,Qingdao,8200069,0.036240753974759066
394,38.9656,121.5386,Dalian,5749540,0.004136824446619953
395,32.5631,119.7189,Yangzhou,8985870,0.002826155820873893
397,24.2078,109.3914,Liuzhou,8005244,0.00011007401349642088
399,21.9731,100.7631,Jinghong,1382281,0.00021525114672991908
401,47.31,119.9942,Aershan,489989,0.0005695319278195798
402,30.5569,111.4797,Yichang,11664371,0.0017767267146909487
403,29.345,120.0325,Yiwu,6139309,0.00020226368532902858
404,29.1044,110.4431,Zhangjiajie,2982561,0.0001237002150723205
405,31.4289,104.7408,Mianyang,8917604,0.0007664728805532504
406,41.1056,122.8561,Anshan,8750351,0.0033181888326205646
407,29.8267,121.4619,Ningbo,6757958,0.0054342927231225465
408,36.5258,114.425,Handan,26271177,0.00037237808724333547
411,39.9678,119.7292,Qinhuangdao,4523764,0.0006057265018032856
412,31.1433,121.8053,Shanghai,20308438,0.09740209621868068
413,41.6397,123.4833,Shenyang,13195977,0.00041708897972651235
420,40.08,116.5844,Beijing,28331507,0.08794062721010218
426,50.3781,124.1156,Jiagedaqi,850410,0.002992650784551651
429,40.8514,111.8242,Hohhot,4401373,0.01368409584025191
430,24.5442,118.1278,Xiamen,8240158,0.018401310606048372
433,50.1717,127.3094,Heihe,1020239,0.007532725159803284
438,31.9911,116.9892,Hefei,14358834,0.017824965577440843
439,36.5286,102.0403,Xining,3472426,0.002953475512506406
440,38.2806,114.6972,Shijiazhuang,24520869,0.015023507199018715
442,33.4261,120.2031,Yancheng,6283873,0.0014952608572538473
445,31.7419,118.8619,Nanjing,13651608,0.03656054347622383
449,33.7875,119.1278,Huai'an,10190694,0.004708485482807131
450,25.8514,114.7753,Ganzhou,7056603,0.0011226698438442939
451,21.5394,109.2939,Beihai,5621760,0.0047020981960279725
453,37.7469,112.6283,Taiyuan,11233266,0.00783271409907921
455,23.3925,113.2989,Guangzhou,39293380,0.03257105213294415
456,28.1936,113.2178,Changsha,18325936,0.019325549128966404
457,30.2294,120.4344,Hangzhou,12817942,0.035575200010704106
458,24.9922,102.7436,Kunming,11115277,0.013882952975186965
460,26.5386,106.8008,Guiyang,7252992,0.0070196141438413975
461,25.2181,110.0392,Guilin,4941136,0.002362439728139177
465,27.9131,120.8522,Wenzhou,9918949,0.015192557046749218
469,21.2153,110.3583,Zhanjiang,11700739,0.0018371929171176265
470,22.6083,108.1725,Nanning,8261012,0.010459587009332902
471,30.5825,117.0503,Anqing,4642340,0.0006727928788516947
472,28.8639,115.9022,Nanchang,10823928,0.014669226379605412
473,22.3089,113.9147,Hong Kong,36745880,0.05485518661916975
475,19.9347,110.4589,Haikou,5945540,0.019811194853933917
476,36.8572,117.2161,Jinan,24300017,0.02635431836980593
477,30.7839,114.2081,Wuhan,30649978,0.014903213534340369
480,35.1164,111.0336,Yuncheng,12627248,0.0021229169529662856
481,34.5194,113.8411,Zhengzhou,32471775,0.024654238943170308
484,42.16,118.8408,Chifeng,9056162,0.003123376988254495
486,39.7189,113.1461,Datong,7535077,0.002772928571567601
531,18.7714,98.9628,Chiang Mai,1497016,0.0004128308013149547
538,13.6858,100.7489,Bangkok,23541053,0.005230751595767142
549,8.1122,98.3053,Phuket,711102,0.001287461513163243
566,27.6967,85.3592,Kathmandu,4670436,0.00010815783129503776
596,14.5086,121.0194,Manila,26922690,0.0006059393896458591
615,10.3075,123.9794,Cebu,4439843,0.00012391310291489413
791,51.4775,-0.4614,London (UK),17233070,0.0003838751804516342
827,15.1189,145.7294,Saipan,118045,0.0001871471155605373
1099,28.5664,77.1031,Delhi,62390146,0.00013136494387785296
1125,21.2211,105.8072,Hanoi,20834462,0.00018523093335915414
1129,10.8189,106.6519,Ho Chi Minh City,16228217,0.0004549868097453836
1137,11.9981,109.2192,Nha Trang,1733076,0.00048692320531753164
1175,50.1008,14.26,Prague,3395494,0.00016032056474117354
1238,-8.7481,115.1672,Denpasar,5493498,0.00035066134285311205
1314,-6.1256,106.6558,Jakarta,36994844,0.0005009751825785785
1535,49.0097,2.5478,Paris,13528665,0.00037046190504195234
1603,-27.3842,153.1175,Brisbane,1972855,0.0002192963989752591
1612,-33.9461,151.1772,Sydney (AU),4670715,0.001174619689447856
1648,-37.6733,144.8433,Melbourne (AU),4144035,0.0007415625119352698
1831,46.8886,142.7175,Yuzhno-Sakhalinsk,153359,0.00031233769882544954
1849,56.7431,60.8028,Yekaterinburg,3823294,0.001068803854362993
1855,59.8003,30.2625,St Petersburg,2791267,0.0001869342277179636
1859,43.3989,132.1481,Vladivostok,845793,0.0009940727485090509
1870,55.0125,82.6506,Novosibirsk,2154832,0.0008603658084210236
1874,56.1731,92.4933,Krasnoyarsk,1732155,0.0006785414254558442
1876,62.0933,129.7706,Yakutsk,134358,0.00018288893714897968
1882,48.5281,135.1883,Khabarovsk,595537,0.0011939944376279054
1890,55.4089,37.9064,Moscow,24597359,0.001126715134413278
1918,52.2681,104.3889,Irkutsk,1220082,0.0008284294511725196
2375,37.6189,-122.3917,San Francisco,7595097,0.00023952277517289076
2393,33.9425,-118.4081,Los Angeles,19797290,0.0005765579164501032
2518,40.6397,-73.7789,New York,16714154,0.000309356962440266
2682,43.6772,-79.6306,Toronto,7618258,0.0003291575246291063
2766,49.1939,-123.1844,Vancouver,2794226,0.000401333708106656
2801,33.5114,126.4931,Jeju,527344,0.0001903407781119385
2803,37.4692,126.4506,Seoul,27019922,0.011939731296818258
2806,35.1403,129.0628,Pusan,4350635,0.0001332811260792361
2821,1.3592,103.9894,Singapore,4091180,0.004511544530073461
2825,25.0778,121.2328,Taipei,10434115,0.006324040004739325
3046,-37.0097,174.7917,Auckland,1473397,0.00036002932769381
3099,41.8003,12.2389,Rome,4729924,0.0003168088034032248
3106,35.5522,139.7797,Tokyo,32212732,0.0007270846823417874
3127,35.7647,140.3864,Tokyo Narita,8512151,0.004531557980104875
3141,34.8583,136.8053,Nagoya,11834566,0.0011471543984534832
3144,34.4361,132.9194,Hiroshima,1535236,0.0005290792137479603
3147,33.5858,130.4506,Fukuoka,3931988,0.0002761431631653878
3151,34.4272,135.2442,Osaka,19601735,0.003589435077199386
3152,37.9558,139.1208,Niigata,2202929,0.002389905019133549
3158,42.7753,141.6922,Sapporo,3205804,0.000193321476173478
3181,25.2528,55.3644,Dubai,1501658,0.0005158788261808521
