id,lat,lng,label,population,risk
182,2.7456,101.7147,Kuala Lumpur,8711663,0.0005397015924629449
221,11.5467,104.8442,Phnom Penh,12169535,0.00679666747015125
315,30.5786,103.9472,Chengdu,62854385,0.03581679230921018
316,34.2294,117.2458,Xuzhou,20796535,0.00010462310581108478
322,39.1244,117.3461,Tianjin,14241195,0.005366394634234612
325,29.7194,106.6419,Chongqing,16205267,0.034752699654651595
336,46.8433,130.4653,Jiamusi,4290598,0.00016331393153953916
343,36.5167,103.6167,Lanzhou,6850245,0.0025237110181695896
348,34.4478,108.7539,Xi'an,22353249,0.04892018545489407
353,32.1506,112.2908,Xiangyang,11750932,0.0001518309189339446
354,25.0536,99.1681,Baoshan,2095138,0.00012248539123959135
358,45.6233,126.2503,Harbin,12100114,0.011009657333703977
362,31.9194,119.7783,Changzhou,6991084,0.00032152435295664786
363,23.4275,116.7625,Shantou,16909762,0.02647472355837864
371,22.7947,100.9592,Simao,2213550,0.0003968019310733793
373,18.3028,109.4122,Sanya,2888131,0.006612939268461736
375,26.6742,100.2436,Lijiang,1495973,0.0005448051025853751
376,25.935,119.6633,Fuzhou,10913454,0.00887126523400217
377,27.7917,99.6781,Deqen,748566,0.0001097266159335152
378,37.4017,121.3717,Yantai,6160152,0.0003865946811682664
379,43.9072,87.4742,Urumqi,5237049,0.0012171993361930241
389,24.7956,118.5881,Quanzhou,9437088,0.007114364305346201
391,36.2661,120.3744,Qingdao,8200069,0.006325863953321872
394,38.9656,121.5386,Dalian,5749540,0.0049045223749496145
398,28.8528,105.3933,Luzhou,9659760,0.00016331393153953916
399,21.9731,100.7631,Jinghong,1382281,0.0004057331886177587
402,30.5569,111.4797,Yichang,11664371,0.0058014731208864715
403,29.345,120.0325,Yiwu,6139309,0.00047973477437375663
404,29.1044,110.4431,Zhangjiajie,2982561,0.0004376304713733273
407,29.8267,121.4619,Ningbo,6757958,0.01765832163234323
412,31.1433,121.8053,Shanghai,20308438,0.09351637866760143
413,41.6397,123.4833,Shenyang,13195977,0.0041377122854359925
414,24.4014,98.5322,Mangshi,1327739,0.000391698420950949
416,23.7389,100.025,Lincang,2848292,0.0003202483605959142
420,40.08,116.5844,Beijing,28331507,0.05735637197258413
429,40.8514,111.8242,Hohhot,4401373,0.0006672907234852184
430,24.5442,118.1278,Xiamen,8240158,0.011004553823581543
438,31.9911,116.9892,Hefei,14358834,0.028015999002589533
439,36.5286,102.0403,Xining,3472426,0.00038276716340656964
440,38.2806,114.6972,Shijiazhuang,24520869,0.008234596030572038
445,31.7419,118.8619,Nanjing,13651608,0.03789394159846207
447,24.2642,116.0983,Meixian,6486268,0.005918855002003633
450,25.8514,114.7753,Ganzhou,7056603,0.00582826689351961
453,37.7469,112.6283,Taiyuan,11233266,0.004710586923354988
455,23.3925,113.2989,Guangzhou,39293380,0.03800749573215728
456,28.1936,113.2178,Changsha,18325936,0.05004679668260308
457,30.2294,120.4344,Hangzhou,12817942,0.03594310544787173
458,24.9922,102.7436,Kunming,11115277,0.03927955837631707
460,26.5386,106.8008,Guiyang,7252992,0.031605078438018214
461,25.2181,110.0392,Guilin,4941136,0.011976782147635132
465,27.9131,120.8522,Wenzhou,9918949,0.011587635711405656
472,28.8639,115.9022,Nanchang,10823928,0.033748574047842435
473,22.3089,113.9147,Hong Kong,36745880,0.08988393216443757
475,19.9347,110.4589,Haikou,5945540,0.01666843912983287
476,36.8572,117.2161,Jinan,24300017,0.011537875913561323
477,30.7839,114.2081,Wuhan,30649978,0.07188748665844394
481,34.5194,113.8411,Zhengzhou,32471775,0.03694850681738137
482,28.9186,111.6408,Changde,10758043,0.00021307372938386636
483,43.9961,125.6853,Changchun,16217434,0.004242335161586825
512,60.3172,24.9633,Helsinki,1565388,0.00013524439620591958
538,13.6858,100.7489,Bangkok,23541053,0.008353253674389681
575,17.9883,102.5633,Vientiane,1706759,0.0001620381688390576
596,14.5086,121.0194,Manila,26922690,0.0007999831349696707
712,-17.5539,-149.6072,Tahiti,218007,0.00010334711345035112
733,50.0331,8.5706,Frankfurt,6970523,0.00013014088608348916
791,51.4775,-0.4614,London (UK),17233070,0.00047973477437375663
875,16.9072,96.1333,Yangon,11684460,0.0001556586663558935
915,37.9364,23.9444,Athens (GR),4646597,0.00013269264114470434
1090,19.0886,72.8681,Mumbai,28236589,0.00011610611841667935
1125,21.2211,105.8072,Hanoi,20834462,0.00010079535838913587
1129,10.8189,106.6519,Ho Chi Minh City,16228217,0.00047845878201302304
1314,-6.1256,106.6558,Jakarta,36994844,0.00046952752446864366
1535,49.0097,2.5478,Paris,13528665,0.0004937695420405664
1612,-33.9461,151.1772,Sydney (AU),4670715,0.0012363376139822644
1648,-37.6733,144.8433,Melbourne (AU),4144035,0.0004937695420405664
1882,48.5281,135.1883,Khabarovsk,595537,0.000204142471839487
1890,55.4089,37.9064,Moscow,24597359,0.00032280034531738155
2375,37.6189,-122.3917,San Francisco,7595097,0.00012758913102227392
2393,33.9425,-118.4081,Los Angeles,19797290,0.0006979120138800534
2518,40.6397,-73.7789,New York,16714154,0.00015310691129467828
2682,43.6772,-79.6306,Toronto,7618258,0.00011738188111716092
2766,49.1939,-123.1844,Vancouver,2794226,0.0001990389617170565
2803,37.4692,126.4506,Seoul,27019922,0.0010628166621978645
2806,35.1403,129.0628,Pusan,4350635,0.0002385915096562707
2821,1.3592,103.9894,Singapore,4091180,0.0006341174483689164
2825,25.0778,121.2328,Taipei,10434115,0.0007196020467305087
2828,22.5772,120.35,Kaohsiung,5680715,0.0001071748608723
3046,-37.0097,174.7917,Auckland,1473397,0.00030111008280667395
3106,35.5522,139.7797,Tokyo,32212732,0.00027559230253426957
3127,35.7647,140.3864,Tokyo Narita,8512151,0.00011355413369521201
3151,34.4272,135.2442,Osaka,19601735,0.000381491171045836
3181,25.2528,55.3644,Dubai,1501658,0.0004988730521629967
