id,lat,lng,label,population,risk
69,23.8433,90.3978,Dhaka,57695473,0.00013853772020913722
173,5.2972,100.2767,Penang,2621408,0.0004738302026843429
182,2.7456,101.7147,Kuala Lumpur,8711663,0.006714254581197548
186,5.9372,116.0531,Kota Kinabalu,1537665,0.002131924454350859
219,-24.5553,25.9183,Gaborone,785835,0.00012982077040967247
221,11.5467,104.8442,Phnom Penh,12169535,0.0008713867724063954
222,13.4106,103.8128,Siem Reap,4814927,0.0002587075598974351
223,10.5797,103.6369,Sihanoukville,1091383,0.005816405501664074
279,46.2381,6.1089,Geneva,1102297,0.00011612262638517849
312,35.2931,116.3467,Jining,25722140,0.0016730377222661348
315,30.5786,103.9472,Chengdu,62854385,0.045073329157984315
316,34.2294,117.2458,Xuzhou,20796535,0.001599877321685054
322,39.1244,117.3461,Tianjin,14241195,0.025935820170510854
325,29.7194,106.6419,Chongqing,16205267,0.04230475372507218
328,37.1872,122.2289,Weihai,2392348,0.00044207546775448987
330,27.8111,107.2461,Zunyi,7545282,0.006595641357699854
338,27.8833,109.3083,Tongren,3899266,0.0008386981125923673
343,36.5167,103.6167,Lanzhou,6850245,0.007261867763693931
346,31.4947,120.4294,Wuxi,7494542,0.00045919807773793915
348,34.4478,108.7539,Xi'an,22353249,0.046542763073991
353,32.1506,112.2908,Xiangyang,11750932,0.0018498678757452895
355,40.5606,109.9964,Baotou,3343659,0.0026188301097532663
358,45.6233,126.2503,Harbin,12100114,0.014834433608542075
362,31.9194,119.7783,Changzhou,6991084,0.005464924390127329
363,23.4275,116.7625,Shantou,16909762,0.006367131916541668
366,36.0789,106.2164,Guyuan,5702804,0.0006101886714341803
370,29.9347,122.3619,Zhoushan,1484739,0.005318292355387422
371,22.7947,100.9592,Simao,2213550,0.00017247170659829007
372,29.2981,90.9122,Lhasa,1019683,0.0005223962019444304
373,18.3028,109.4122,Sanya,2888131,0.0070059620905244925
375,26.6742,100.2436,Lijiang,1495973,0.0021882735345639705
378,37.4017,121.3717,Yantai,6160152,0.004161424426341033
379,43.9072,87.4742,Urumqi,5237049,0.005129009328421163
380,34.5719,118.8739,Lianyungang,7795627,0.000862981112222411
381,34.7414,112.3894,Luoyang,11740472,0.0020693490214507976
382,35.0494,118.4119,Linyi,12843250,0.006698065896098274
387,38.27,109.7306,Yulin,3211960,0.0031938395242609038
388,25.6503,100.3194,Dali,3767440,0.0002331792336922668
391,36.2661,120.3744,Qingdao,8200069,0.018923631615223938
394,38.9656,121.5386,Dalian,5749540,0.013061461944990038
395,32.5631,119.7189,Yangzhou,8985870,0.005580424381243813
397,24.2078,109.3914,Liuzhou,8005244,0.0016559150562449507
398,28.8528,105.3933,Luzhou,9659760,0.0011154622633951614
399,21.9731,100.7631,Jinghong,1382281,0.00041561321666514617
402,30.5569,111.4797,Yichang,11664371,0.008056046978253862
404,29.1044,110.4431,Zhangjiajie,2982561,0.00012048112930377815
405,31.4289,104.7408,Mianyang,8917604,0.001110169779554652
407,29.8267,121.4619,Ningbo,6757958,0.00046698110265322863
412,31.1433,121.8053,Shanghai,20308438,0.06040805522030007
413,41.6397,123.4833,Shenyang,13195977,0.019757971224897704
414,24.4014,98.5322,Mangshi,1327739,0.00029637735789875806
419,27.3258,103.7547,Zhaotong,7135359,0.00010429244420450412
420,40.08,116.5844,Beijing,28331507,0.07251220588523777
429,40.8514,111.8242,Hohhot,4401373,0.002675801825235073
430,24.5442,118.1278,Xiamen,8240158,0.0026605471210577078
436,44.5242,129.5689,Mudanjiang,3143833,0.00018087736678227458
438,31.9911,116.9892,Hefei,14358834,0.0006316697843362293
439,36.5286,102.0403,Xining,3472426,0.0007608679194772066
440,38.2806,114.6972,Shijiazhuang,24520869,0.0060318394901041975
441,42.8828,129.4514,Yanji,1789684,0.00030789619442621763
442,33.4261,120.2031,Yancheng,6283873,0.006760018693729641
445,31.7419,118.8619,Nanjing,13651608,0.025397235283467143
449,33.7875,119.1278,Huai'an,10190694,0.006183141373415918
450,25.8514,114.7753,Ganzhou,7056603,0.0016826886529875092
451,21.5394,109.2939,Beihai,5621760,0.0038416980497341406
452,27.3006,105.3017,Bijie,6594987,0.002363547127890256
453,37.7469,112.6283,Taiyuan,11233266,0.016139490188518978
455,23.3925,113.2989,Guangzhou,39293380,0.030729537016456806
456,28.1936,113.2178,Changsha,18325936,0.02537326357345258
457,30.2294,120.4344,Hangzhou,12817942,0.0006995377010768004
458,24.9922,102.7436,Kunming,11115277,0.02714032011789541
460,26.5386,106.8008,Guiyang,7252992,0.034428650132678686
461,25.2181,110.0392,Guilin,4941136,0.010236537487902543
469,21.2153,110.3583,Zhanjiang,11700739,0.0021646131702026217
470,22.6083,108.1725,Nanning,8261012,0.03244460303964286
471,30.5825,117.0503,Anqing,4642340,0.0010768584844719287
472,28.8639,115.9022,Nanchang,10823928,0.0003153679297260269
473,22.3089,113.9147,Hong Kong,36745880,0.04046889528296687
475,19.9347,110.4589,Haikou,5945540,0.018980603330705743
476,36.8572,117.2161,Jinan,24300017,0.010869763888429376
477,30.7839,114.2081,Wuhan,30649978,0.020083924066267016
479,26.3417,111.6089,Yongzhou,18814432,0.0030696225833449554
480,35.1164,111.0336,Yuncheng,12627248,0.0015883584291198599
481,34.5194,113.8411,Zhengzhou,32471775,0.037023508588455135
483,43.9961,125.6853,Changchun,16217434,0.005025339519485354
531,18.7714,98.9628,Chiang Mai,1497016,0.0002720943582687143
538,13.6858,100.7489,Bangkok,23541053,0.007873924340934198
549,8.1122,98.3053,Phuket,711102,0.00019364152988485882
566,27.6967,85.3592,Kathmandu,4670436,0.00011394337492587866
575,17.9883,102.5633,Vientiane,1706759,0.0003779433626260887
596,14.5086,121.0194,Manila,26922690,0.00030291511227665754
615,10.3075,123.9794,Cebu,4439843,0.0023398867635289066
626,-26.1392,28.2461,Johannesburg,13748925,0.0012577357952164687
635,-33.9647,18.6017,Cape Town,3657016,0.0002543490569788355
639,-29.6144,31.1164,Durban,3574908,0.00023753773661086645
720,50.9014,4.4844,Brussels,6677903,0.0003262641309847916
733,50.0331,8.5706,Frankfurt,6970523,0.0005146131770291408
758,7.1803,79.8853,Colombo,9032691,0.00010771696620119396
762,55.95,-3.3725,Edinburgh,1697129,0.00010429244420450412
789,53.3536,-2.275,Manchester,5485344,0.0006537735885447077
791,51.4775,-0.4614,London (UK),17233070,0.0027237452452642
829,-29.4622,27.5525,Maseru,1999690,0.00015223586423363121
830,47.4369,19.2556,Budapest,4865499,0.00021138677513700307
837,52.3081,4.7642,Amsterdam,9166721,0.00044238675736997003
875,16.9072,96.1333,Yangon,11684460,0.0004196603739305311
884,21.7022,95.9781,Mandalay,7168138,0.00017433961240437518
915,37.9364,23.9444,Athens (GR),4646597,0.00026586789350629514
1034,32.5411,-116.9703,Tijuana,2579855,0.000317858470800807
1099,28.5664,77.1031,Delhi,62390146,0.00010802831185440877
1125,21.2211,105.8072,Hanoi,20834462,0.00029917924462675294
1129,10.8189,106.6519,Ho Chi Minh City,16228217,0.0005949339672568161
1205,32.0072,34.8806,Tel Aviv,4546752,0.00015846227295831586
1238,-8.7481,115.1672,Denpasar,5493498,0.0029092924045805548
1254,-7.3797,112.7869,Surabaya,14697428,0.0005482358177650791
1314,-6.1256,106.6558,Jakarta,36994844,0.006180339486687923
1439,38.7742,-9.1342,Lisbon,3796257,0.00010335846328259433
1479,4.1917,73.5292,Male,172562,0.000192707548962949
1535,49.0097,2.5478,Paris,13528665,0.0033473206590319245
1564,55.6203,12.6503,Copenhagen,2357021,0.0001892830269662592
1595,-34.945,138.5306,Adelaide,1303638,0.00028859433298346863
1603,-27.3842,153.1175,Brisbane,1972855,0.00040876411663403196
1612,-33.9461,151.1772,Sydney (AU),4670715,0.004729896142508507
1615,-31.9403,115.9669,Perth,1700500,0.00048285849813702237
1648,-37.6733,144.8433,Melbourne (AU),4144035,0.0019538490303343137
1684,-16.8781,145.7489,Cairns,216769,0.0001917735680410392
1738,-1.3192,36.9278,Nairobi,8886171,0.00010024528693911923
1890,55.4089,37.9064,Moscow,24597359,0.003157726342450185
2042,-23.4319,-46.4694,Sao Paulo,23797477,0.000478188649565208
2204,33.6367,-84.4281,Atlanta,4756209,0.00025154717025084063
2217,41.9786,-87.9047,Chicago,9723114,0.0005694056410516478
2305,25.7933,-80.2906,Miami,5181145,0.00013386792767505735
2334,29.9844,-95.3414,Houston,5803516,0.0002412736042607711
2335,39.1753,-76.6683,Baltimore,8035632,0.0002910848740582486
2375,37.6189,-122.3917,San Francisco,7595097,0.0007073207259920898
2393,33.9425,-118.4081,Los Angeles,19797290,0.0015678112971397207
2429,47.4489,-122.3094,Seattle,4500055,0.00022415093823958726
2489,42.3644,-71.0053,Boston,5294555,0.0007284905492786585
2511,21.3278,-157.9222,Honolulu,1093438,0.0004794339761403325
2518,40.6397,-73.7789,New York,16714154,0.016622971321924696
2532,28.4294,-81.3089,Orlando,3230600,0.0001326226571376673
2682,43.6772,-79.6306,Toronto,7618258,0.004410169709863879
2716,51.1139,-114.0203,Calgary,1610469,0.00011674526165387352
2766,49.1939,-123.1844,Vancouver,2794226,0.0009131037276731033
2777,45.4706,-73.7408,Montreal,5049937,0.0001108301985824036
2801,33.5114,126.4931,Jeju,527344,0.0001917735680410392
2803,37.4692,126.4506,Seoul,27019922,0.0009040754322204237
2821,1.3592,103.9894,Singapore,4091180,0.01280898084985502
2825,25.0778,121.2328,Taipei,10434115,0.02223328253229228
2828,22.5772,120.35,Kaohsiung,5680715,0.0058083111871333045
2873,36.675,-4.4992,Malaga,1326212,0.00011923585876638811
2874,40.4936,-3.5667,Madrid,6752288,0.001441415048726738
2883,39.4894,-0.4817,Valencia (ES),2682797,0.0002157452780556028
2884,41.2969,2.0783,Barcelona (ES),4148999,0.0006276226270708442
2905,27.9319,-15.3867,Gran Canaria,793484,0.0001108301985824036
2907,43.3011,-2.9106,Bilbao,1559995,0.0001320000218689723
2911,39.5517,2.7389,Palma de Mallorca,762719,0.0002001792282250237
2925,53.4214,-6.27,Dublin,2249671,0.0005840377099603169
2979,-9.4433,147.22,Port Moresby,443614,0.00015067924804302638
3041,-43.4894,172.5322,Christchurch,450914,0.0001092735823917988
3046,-37.0097,174.7917,Auckland,1473397,0.001387867911279356
3081,43.8086,11.2028,Florence (IT),1721779,0.0002969999931674531
3085,45.5053,12.3519,Venice,3258564,0.00012795280856585286
3093,45.63,8.7231,Milan,8907478,0.00039942453156587216
3099,41.8003,12.2389,Rome,4729924,0.0013218679003448696
3106,35.5522,139.7797,Tokyo,32212732,0.001998679217982231
3127,35.7647,140.3864,Tokyo Narita,8512151,0.011366009184937678
3135,26.1958,127.6458,Okinawa,1306046,0.00029233020063337324
3141,34.8583,136.8053,Nagoya,11834566,0.0004523490337445594
3147,33.5858,130.4506,Fukuoka,3931988,0.00024376414533555112
3151,34.4272,135.2442,Osaka,19601735,0.0068070281328368575
3158,42.7753,141.6922,Sapporo,3205804,0.00017620751821046017
3161,43.0614,74.4775,Bishkek,2096218,0.0001092735823917988
3181,25.2528,55.3644,Dubai,1501658,0.0010195754233369072
3205,-34.8222,-58.5358,Buenos Aires,15821757,0.0019105754028392668
